fuente,external_id,nombre,descripcion,categoria,tipo_plantilla,municipio,territorio,direccion,lat,lng,telefono,email,website,es_lluvia,es_carrito,es_cambiador,es_silla_ruedas,es_mascotas,edad_minima
,https://turismoa.euskadi.eus/es/museos/museo-bibat/webtur00-content/es/,Museo Bibat,"Ubicado en el Casco Antiguo de Vitoria-Gasteiz, consta de dos edificios unidos: el edificio nuevo...",cultura,Auditorios; Museos; Galerías de arte y salas de exposiciones,Vitoria-Gasteiz,araba,"Cuchillería, 54. Junto al Palacio de Bendaña.",42.8493094,-2.671176400000036,945 203 700,bibat@araba.eus,https://fourniermuseoabibat.eus/es/inicio,True,True,False,True,False,4
,https://turismoa.euskadi.eus/es/museos/museo-de-faroles-de-la-cofradia-de-la-virgen-blanca/webtur00-content/es/,Museo de Faroles de la Cofradía de la Virgen Blanca,"Este original museo alberga las 267 piezas de vidrio policromado que, desde hace más de 10...",cultura,Auditorios; Museos; Galerías de arte y salas de exposiciones,Vitoria-Gasteiz,araba,"Zapatería, 33",42.84809749,-2.67413986,945 277 077,info@cofradiavirgenblanca.com,http://www.cofradiavirgenblanca.com/,True,True,False,True,False,2
,https://turismoa.euskadi.eus/es/museos/museo-de-ciencias-naturales-de-alava/webtur00-content/es/,Museo de Ciencias Naturales de Álava,El Museo de Ciencias Naturales de Álava cuenta con una atractiva oferta museogr&aacut...,cultura,Auditorios; Museos; Galerías de arte y salas de exposiciones,Vitoria-Gasteiz,araba,"Fundadora de las Siervas de Jesús, 24",42.8502903,-2.67462519,945 181 924,mcna@araba.eus,,True,False,False,False,False,2
,https://turismoa.euskadi.eus/es/museos/artium-centro-museo-vasco-de-arte-contemporaneo/webtur00-content/es/,Artium museoa,"El/la visitante podrá encontrar en exposición obras de su colección, que con...",cultura,Auditorios; Museos; Galerías de arte y salas de exposiciones,Vitoria-Gasteiz,araba,"Francia, 24",42.84942634,-2.66802071,945 209 020,museo@artium.eus,https://www.artium.eus/es/,True,False,False,False,False,2
,https://turismoa.euskadi.eus/es/museos/museo-de-armeria/webtur00-content/es/,Museo de Armería,El Museo de Armería ofrece al visitante una exposición que se desarrolla cronol&oac...,cultura,Auditorios; Museos; Galerías de arte y salas de exposiciones,Vitoria-Gasteiz,araba,"Paseo de Fray Francisco de Vitoria, 3",42.8413475,-2.678544200000033,945 181 925,museoarmeria@araba.eus,,True,True,False,True,False,2
,https://turismoa.euskadi.eus/es/museos/conjunto-monumental-de-iruna-veleia/webtur00-content/es/,Conjunto Monumental de Iruña-Veleia,El yacimiento arqueológico de Iruña-Veleia abarca más de 1.500 años d...,cultura,Auditorios; Museos; Galerías de arte y salas de exposiciones,Iruña Oka/Iruña de Oca,araba,Trespuentes y Víllodas,,,618 539 353,,https://www.irunadeoca.com/ayuntamiento-iruna-de-oca/yacimiento-arqueologico-de-iruna-veleia/,True,True,False,True,False,2
,https://turismoa.euskadi.eus/es/museos/museo-de-bellas-artes-de-alava/webtur00-content/es/,Museo de Bellas Artes de Álava,El Museo de Bellas Artes de Álava se encuentra ubicado en el Palacio Augustin-Zulueta en e...,cultura,Auditorios; Museos; Galerías de arte y salas de exposiciones,Vitoria-Gasteiz,araba,"Paseo de Fray Francisco, 8",42.83919723793733,-2.68563367052127,945 181 918,museobellasartes@araba.eus,https://arteederrenmuseoa.eus/es/inicio,True,True,False,True,False,2
,https://turismoa.euskadi.eus/es/museos/villa-lucia-centro-tematico-del-vino/webtur00-content/es/,Villa Lucía. Centro Temático del vino,"Situado en una antigua finca de recreo del fabulista Samaniego en Laguardia, su museo del vino, d...",cultura,Auditorios; Museos; Galerías de arte y salas de exposiciones,Laguardia,araba,Ctra. Logroño s/n,42.54833710996413,-2.5782178043932618,945 600 032,reservas@villa-lucia.com,https://villa-lucia.com/,True,False,True,False,False,2
,https://turismoa.euskadi.eus/es/museos/museo-diocesano-de-arte-sacro-vitoria-gasteiz/webtur00-content/es/,Museo Diocesano de Arte Sacro,El Museo Diocesano de Arte Sacro es un lugar para encontrarse con nuestro pasado y sus formas art...,cultura,Auditorios; Museos; Galerías de arte y salas de exposiciones,Vitoria-Gasteiz,araba,"Catedral María Inmaculada. Calle del Monseñor Cadena y Eleta, s/n",42.84539329508149,-2.6771235713322312,945 150 631,info@museosacrovitoria.eus,https://museosacrovitoria.eus/eu/,True,False,True,True,False,4
,https://turismoa.euskadi.eus/es/museos/museo-de-la-policia-vasca/webtur00-content/es/,Museo de la Policía Vasca,Los fondos que componen la exposición permanente recogen una amplia información sob...,cultura,Auditorios; Museos; Galerías de arte y salas de exposiciones,Vitoria-Gasteiz,araba,Academia Vasca de Policía y Emergencias<br/>Ctra. N-104 km. 356. CP 01192,42.871409,-2.583495,945 773 465,museopoliciavasca@seg.euskadi.eus,http://www.museopoliciavasca.eus/es/eus,True,False,True,True,False,4
,https://turismoa.euskadi.eus/es/museos/museo-etnografico-usatxi-de-pipaon/webtur00-content/es/,Museo Etnográfico Usatxi de Pipaón,"A través del Museo Etnográfico 'Usatxi' de Pipaón, el visitante se aproxima ...",cultura,Auditorios; Museos; Galerías de arte y salas de exposiciones,Lagrán,araba,"Plaza Mayor, s/n",42.615131,-2.643003,945 40 32 67,,https://alavaturismo.eus/es/museo-etnografico-de-pipaon/,True,False,False,True,False,2
,https://turismoa.euskadi.eus/es/museos/museo-etnografico-de-artziniega/webtur00-content/es/,Museo Etnográfico de Artziniega,"Creado en 1984 y ampliado en 2004, acoge una amplia y variada exposición de 1.700 m2 distr...",cultura,Auditorios; Museos; Galerías de arte y salas de exposiciones,Artziniega,araba,"C/ Arteako Aldapa, 12",43.1230932,-3.13249406,945 396 210,artziniegakomuseoa@gmail.com,https://artziniegamuseoa.eus/,True,False,False,True,True,2
,https://turismoa.euskadi.eus/es/museos/museo-del-poblado-de-la-hoya/webtur00-content/es/,Museo del poblado de La Hoya,El Museo del poblado de La Hoya recoge una visión didáctica del ambiente en el que ...,cultura,Auditorios; Museos; Galerías de arte y salas de exposiciones,Laguardia,araba,"Ctra. Elvillar, s/n",42.5644309,-2.584556099999986,945 621 122,,https://www.nekatur.net/es/poblado-de-la-hoya-yacimiento-y-museo,True,False,False,True,False,4
,https://turismoa.euskadi.eus/es/museos/museo-de-alfareria-vasca/webtur00-content/es/,Museo de Alfarería Vasca,"Este Museo se alza en un enclave rural de gran belleza natural, entre los Parques Naturales de Ur...",cultura,Auditorios; Museos; Galerías de arte y salas de exposiciones,Legutio,araba,"Barrio Ollerías, 9",42.99048732,-2.67579564,945 455 145,blanka@euskalzeramika.com,http://www.euskalzeramika.com/es,True,False,True,True,False,4
,https://turismoa.euskadi.eus/es/museos/museo-etnografico-de-oyon-oion/webtur00-content/es/,Museo Etnográfico de Oyón-Oion,"El Museo Etnográfico de Oyón-Oion describe la vida, las costumbres, las curiosidade...",cultura,Auditorios; Museos; Galerías de arte y salas de exposiciones,Oyón-Oion,araba,"Los Fueros, 6 planta baja. Entrada por la Plaza de los Fueros.",42.5052367,-2.433099599999992,945 622 190,info@ayuntamientodeoyon.com,https://www.euskadi.eus/museo-etnografico-de-oyon/web01-a2muszen/es/,True,True,False,True,False,2
,https://turismoa.euskadi.eus/es/museos/museo-maritimo-vasco/webtur00-content/es/,Museo Marítimo Vasco,"El Museo Marítimo Vasco, anteriormente Museo Naval, se sitúa en la Casa Torre del C...",cultura,Auditorios; Museos; Galerías de arte y salas de exposiciones,Donostia / San Sebastián,gipuzkoa,"Paseo del Muelle, 24",43.32296774,-1.99095009,943 430 051,info@itsasmuseoa.eus,https://itsasmuseoa.eus,True,True,False,True,False,4
,https://turismoa.euskadi.eus/es/museos/aquarium-palacio-del-mar/webtur00-content/es/,Aquarium de San Sebastián,Cuenta con tres espacios expositivos: El Oceanario es atravesado por un túnel de metacrila...,cultura,Auditorios; Museos; Galerías de arte y salas de exposiciones,Donostia / San Sebastián,gipuzkoa,"Pza. Carlos Blasco de Imaz, 1",43.32287472,-1.99206009,943 440 099,info@aquariumss.com,https://aquariumss.com/,True,True,True,True,False,4
,https://turismoa.euskadi.eus/es/museos/museo-san-telmo/webtur00-content/es/,Museo San Telmo,"El Museo San Telmo, inaugurado en 1902, es el más antiguo de Euskadi.Reabierto e...",cultura,Auditorios; Museos; Galerías de arte y salas de exposiciones,Donostia / San Sebastián,gipuzkoa,"Plaza Zuloaga, 1",43.324993,-1.984844,943 481 580,santelmo@donostia.eus,https://www.santelmomuseoa.eus/,True,True,True,True,False,4
,https://turismoa.euskadi.eus/es/museos/eureka-zientzia-museoa/webtur00-content/es/,Eureka! Zientzia Museoa,"El museo de la ciencia Eureka! es un espacio ubicado en un entorno natural, en el Parque Tecnol&o...",cultura,Auditorios; Museos; Galerías de arte y salas de exposiciones,Donostia / San Sebastián,gipuzkoa,Paseo Mikeletegi 43-45,43.29053023322701,-1.9841788273849943,943 012 478,eureka@eurekamuseoa.eus,https://www.eurekamuseoa.eus/,True,False,True,True,False,2
,https://turismoa.euskadi.eus/es/museos/museo-diocesano/webtur00-content/es/,D?Museoa,"El D’Museoa es el museo diocesano de San Sebastián, que recoge Obras de Arte Religio...",cultura,Auditorios; Museos; Galerías de arte y salas de exposiciones,Donostia / San Sebastián,gipuzkoa,"Calle 31 de Agosto,  46",43.30813282,-1.98146191,617 256 284,info@dmuseoa.com,https://www.dmuseoa.com/,True,True,False,False,False,2
,https://turismoa.euskadi.eus/es/museos/larraulgo-ekomuseoa/webtur00-content/es/,Larraulgo Ekomuseoa,"Larraulgo Ekomuseoa nació en 2009, y pretende contribuir al desarrollo económico y ...",cultura,Auditorios; Museos; Galerías de arte y salas de exposiciones,Larraul,gipuzkoa,"Plaza San Esteban, s/n",43.18980020880312,-2.1009032169189368,943 693 042,kultura@larraul.eus,https://larraulekomuseoa.net/,True,False,True,True,False,2
,https://turismoa.euskadi.eus/es/museos/museum-cemento-rezola/webtur00-content/es/,Museum Cemento Rezola,"Museum Cemento Rezola está dedicado en a la historia del cemento, realizando tambié...",cultura,Auditorios; Museos; Galerías de arte y salas de exposiciones,Donostia / San Sebastián,gipuzkoa,Av. Añorga 36,43.28548050079436,-2.0003485552700795,943 364 192,info@museumcementorezola.org,http://www.museumcementorezola.org,True,False,False,True,False,2
,https://turismoa.euskadi.eus/es/museos/delikatuz-centro-de-la-alimentacion-y-la-gastronomia/webtur00-content/es/,"D'elikatuz, Centro de la Alimentación y la Gastronomía",D'elikatuz es el centro de alimentación y gastronomía que abrió sus puertas ...,cultura,Auditorios; Museos; Galerías de arte y salas de exposiciones,Ordizia,gipuzkoa,"C/ Santa María, 24",43.0539232684332,-2.1783149246557514,943 882 290,komunikazioa@delikatuz.com,http://www.delikatuz.com,True,True,True,True,False,2
,https://turismoa.euskadi.eus/es/museos/museo-chillida-leku/webtur00-content/es/,Museo Chillida-Leku,El Museo Chillida Leku es el lugar donde se encuentra el corpus de obra más amplio y repre...,cultura,Auditorios; Museos; Galerías de arte y salas de exposiciones,Hernani,gipuzkoa,"Bº Jauregi, 66",43.27864942,-1.99861955,943 335 963,info@museochillidaleku.com,https://www.museochillidaleku.com/,True,False,True,True,False,2
,https://turismoa.euskadi.eus/es/museos/museo-zumalakarregi/webtur00-content/es/,Museo Zumalakarregi,El Museo es hoy centro de referencia para el conocimiento y estudio del País Vasco en el s...,cultura,Auditorios; Museos; Galerías de arte y salas de exposiciones,Ormaiztegi,gipuzkoa,"Muxika egurastokia, 6. Caserío Iriarte-Erdikoa.",43.043037,-2.2546898,943 889 900,mzumalakarregi@gipuzkoa.eus,https://www.zumalakarregimuseoa.eus/es,True,False,True,True,False,2
,https://turismoa.euskadi.eus/es/museos/luberri-centro-de-interpretacion-geologica/webtur00-content/es/,Luberri. Centro de Interpretación Geológica,El Centro de Interpretación Geológica Luberri ofrece una oportunidad única d...,cultura,Auditorios; Museos; Galerías de arte y salas de exposiciones,Oiartzun,gipuzkoa,"Polígono Pagoaldea, 41-42. Barrio Ergoien",43.28636578818436,-1.83285435430912,943 260 593,luberrimuseoa@gmail.com,https://www.luberrimuseoa.eus/museoa/,True,False,True,True,False,2
,https://turismoa.euskadi.eus/es/museos/conjunto-medieval-de-igartza/webtur00-content/es/,Conjunto Monumental de Igartza,"Este conjunto está formado por palacios, ermitas, molinos hidráulicos, ferrer&iacut...",cultura,Auditorios; Museos; Galerías de arte y salas de exposiciones,Beasain,gipuzkoa,Peategi Kalea,43.04727339999999,-2.2077626999999893,943 087 798,igartza@beasain.eus,https://www.igartza.eus/,True,True,False,True,False,4
,https://turismoa.euskadi.eus/es/museos/centro-de-interpretacion-y-degustacion-del-queso-idiazabal/webtur00-content/es/,Centro de Interpretación y Degustación del Queso Idiazabal,"Muestra toda la historia del Queso Idiazabal, elaborado con leche cruda de ovejas latxa y carranz...",cultura,Auditorios; Museos; Galerías de arte y salas de exposiciones,Idiazabal,gipuzkoa,"Kale Nagusia, 37 bajo",43.010162391112175,-2.23359621667646,943 188 203,info@idiazabalturismo.com,https://www.idiazabalturismo.com/es/,True,True,False,True,False,2
,https://turismoa.euskadi.eus/es/museos/museo-de-la-sal/webtur00-content/es/,Museo Salino,El Museo de la Sal de Leintz Gatzaga muestra las instalaciones utilizadas durante siglos para la ...,cultura,Auditorios; Museos; Galerías de arte y salas de exposiciones,Leintz-Gatzaga,gipuzkoa,"Dorleta bidea, s/n",42.98285594,-2.56593463,943 714 792,reservas@gatzmuseoa.com,https://www.gatzmuseoa.com/,True,True,False,True,False,4
,https://turismoa.euskadi.eus/es/museos/museo-territorio-lenbur/webtur00-content/es/,Museo-Territorio Lenbur,El proyecto Lenbur (Legazpi Natura eta Burdina) rompe con la definición del museo como esp...,cultura,Auditorios; Museos; Galerías de arte y salas de exposiciones,Legazpi,gipuzkoa,"Mirandaola Parkea. Telleriarte auzoa, s/n",43.03661719,-2.33706763,943 730 428,mirandaola@lenbur.com,https://lenbur.com/,True,False,False,False,False,2
,https://turismoa.euskadi.eus/es/museos/delikatuz-centro-de-interpretacion-del-goierri/webtur00-content/es/,"D'elikatuz, Centro de interpretación del Goierri","El Centro de interpretación del Goierri muestra mediante maquetas, diaporamas, materiales ...",cultura,Auditorios; Museos; Galerías de arte y salas de exposiciones,Ordizia,gipuzkoa,"C/ Santa María, 24",43.0538222,-2.178485099999989,943 882 290,delikatuz@ordizia.eus,https://www.delikatuz.com/,True,False,False,False,False,2
,https://turismoa.euskadi.eus/es/museos/museo-del-medio-ambiente-ingurugiro-etxea/webtur00-content/es/,Ekoetxea Azpeitia,"Se encuentra situada cerca de los jardines de la basílica de Loiola, y tiene como objetivo...",cultura,Auditorios; Museos; Galerías de arte y salas de exposiciones,Azpeitia,gipuzkoa,"Loiola Auzoa, 1",43.175548680986566,-2.277248805581962,943 812 448,info.azpeitia@ekoetxea.eus,https://www.ekoetxea.eus/,True,False,False,True,False,4
,https://turismoa.euskadi.eus/es/museos/museo-ibarraundi/webtur00-content/es/,Museo Ibarraundi,"En 1986, en un local situado en el mismo Ayuntamiento, se creó el Museo Escuela de Eskoria...",cultura,Auditorios; Museos; Galerías de arte y salas de exposiciones,Eskoriatza,gipuzkoa,"Intxaurtxueta, z/g",43.02021032300748,-2.524334554244996,943 715 453,ibarraundi@eskoriatza.eus,https://eskoriatza.eus/es/eskoriatza/conocer-eskoriatza/museo-ibarraundi/museo-ibarraundi/,True,False,False,True,False,4
,https://turismoa.euskadi.eus/es/museos/museo-vasco-del-ferrocarril/webtur00-content/es/,Museo Vasco del Ferrocarril,"Locomotoras de vapor, tranvías urbanos, vagones de viajeros y mercancías, trolebuse...",cultura,Auditorios; Museos; Galerías de arte y salas de exposiciones,Azpeitia,gipuzkoa,"Julián Elorza, 8",43.185703844685925,-2.261402496745857,943 150 677,museoa@euskotren.eus,https://museoa.euskotren.eus/eu,True,False,True,True,False,4
,https://turismoa.euskadi.eus/es/museos/urrelur-museo-de-minerales-y-fosiles/webtur00-content/es/,Urrelur. Museo de Minerales y Fósiles,El núcleo inicial de los fondos del Museo de Minerales y Fósiles procede de una col...,cultura,Auditorios; Museos; Galerías de arte y salas de exposiciones,Urretxu,gipuzkoa,"Jauregi Kalea, 19. Casa de Cultura",43.093104368022544,-2.314485114418062,943 038 088,urrelur@urretxu.eus,https://urretxu.eus/es/promocion-sociocultural/cultura/instalaciones/museo-de-urretxu,True,True,False,True,False,2
,https://turismoa.euskadi.eus/es/museos/espacio-cultural-ignacio-zuloaga/webtur00-content/es/,Z ESPACIO CULTURAL,"Espacio Cultural creado por Ignacio Zuloaga entre 1910-20, sobre las ruinas de una ermita (S. XV)...",cultura,Auditorios; Museos; Galerías de arte y salas de exposiciones,Zumaia,gipuzkoa,"Bº Santiago auzoa, 3",43.2979527,-2.2477350000000342,34  677 078 445,info@espaciozuloaga.com,http://www.espaciozuloaga.com,True,True,False,False,False,2
,https://turismoa.euskadi.eus/es/museos/centro-de-interpretacion-de-algorri/webtur00-content/es/,Centro de Interpretación de Algorri,El centro de interpretación Algorri nos ayuda a entender los acantilados de&nbsp...,cultura,Auditorios; Museos; Galerías de arte y salas de exposiciones,Zumaia,gipuzkoa,"Juan Belmonte, 21",43.29964021310651,-2.2550572689796127,943 143 100,info@algorri.eus,https://www.algorri.eus/?lang=es,True,False,True,True,False,4
,https://turismoa.euskadi.eus/es/museos/caserio-museo-igartubeiti/webtur00-content/es/,Caserío Museo Igartubeiti,Es un exponente de la arquitectura en madera de los siglos XVI y XVII y fiel reflejo de la Edad d...,cultura,Auditorios; Museos; Galerías de arte y salas de exposiciones,Ezkio-Itsaso,gipuzkoa,Carretera Ezkio,43.0747343,-2.28538161,943 722 978,igartubeiti@gipuzkoa.eus,https://www.igartubeitibaserria.eus/,True,False,True,True,False,2
,https://turismoa.euskadi.eus/es/museos/photomuseum-argazki-zinema-museoa/webtur00-content/es/,Photomuseum. Argazki & Zinema Museoa,Photomuseum. Argazki & Zinema Museoa hace un recorrido a través de la historia del art...,cultura,Auditorios; Museos; Galerías de arte y salas de exposiciones,Zarautz,gipuzkoa,"San Ignacio, 11. Apdo. 251",43.2844465,-2.1778492999999344,943 130 906,photomuseum@photomuseum.name,https://photomuseum.es/,True,True,False,False,False,4
,https://turismoa.euskadi.eus/es/museos/museo-guggenheim-bilbao/webtur00-content/es/,Museo Guggenheim Bilbao,"Convertido en símbolo del nuevo Bilbao, el Museo Guggenheim Bilbao constituye uno de los p...",cultura,Auditorios; Museos; Galerías de arte y salas de exposiciones,Bilbao,bizkaia,"Avenida Abandoibarra, 2",43.26883030680237,-2.9340993057350038,944 359 080,informacion@guggenheim-bilbao.eus,https://www.guggenheim-bilbao.eus/,True,True,False,True,False,4
,https://turismoa.euskadi.eus/es/museos/conjunto-ferro-molinero-de-agorregi/webtur00-content/es/,Conjunto Ferro Molinero de Agorregi,"Está situado en el corazón del Parque Natural de Pagoeta, próximo ...",cultura,Auditorios; Museos; Galerías de arte y salas de exposiciones,Aia,gipuzkoa,Parque Natural de Pagoeta. Bº Laurgain s/n,43.24986232437808,-2.156677797839393,943 835 389,iturraran@gipuzkoanatura.eus,,True,True,False,True,False,4
,https://turismoa.euskadi.eus/es/museos/museo-diocesano-de-arte-sacro-bilbao/webtur00-content/es/,Museo de Arte Sacro,El Museo Diocesano de Arte Sacro expone obras relacionadas con el arte religioso de Bizkaia. El e...,cultura,Auditorios; Museos; Galerías de arte y salas de exposiciones,Bilbao,bizkaia,"Plaza de la Encarnación, 9-B",43.25356330823307,-2.9208300567459022,944 320 125,museo@eleizmuseoa.com,http://www.eleizmuseoa.com,True,True,False,True,False,2
,https://turismoa.euskadi.eus/es/museos/museo-de-la-maquina-herramienta/webtur00-content/es/,Museo de la Máquina-Herramienta,El Museo de la Máquina-Herramienta quiere homenajear a las personas que hicieron posible e...,cultura,Auditorios; Museos; Galerías de arte y salas de exposiciones,Elgoibar,gipuzkoa,"Azkue Bailara, 1",43.21094921,-2.41008419,943 748 456,museoa@museoa.eus,http://www.museoa.eus/es/,True,True,False,True,False,4
,https://turismoa.euskadi.eus/es/museos/museo-de-pasos-de-semana-santa/webtur00-content/es/,Museo de Pasos de Semana Santa,"En este museo, ubicado en pleno centro del Casco viejo bilbaíno, se pueden admirar la mayo...",cultura,Auditorios; Museos; Galerías de arte y salas de exposiciones,Bilbao,bizkaia,"Iturribide, 3",43.25821113451418,-2.920477748479462,944 150 433,info@museodepasosbilbao.com,http://www.museodepasosbilbao.com/,True,True,True,False,False,2
,https://turismoa.euskadi.eus/es/museos/ecomuseo-del-caserio-vasco/webtur00-content/es/,Ecomuseo del Caserío Vasco,El Ecomuseo o Euskal Baserria se sitúa en un caserío reproducción de una cas...,cultura,Auditorios; Museos; Galerías de arte y salas de exposiciones,Artea,bizkaia,"Herriko Plaza, s/n",43.13325159491203,-2.781316874328581,,info@euskalbaserria.com,,True,False,True,True,False,2
,https://turismoa.euskadi.eus/es/museos/museo-taurino-de-bilbao/webtur00-content/es/,Museo Taurino de Bilbao,El Museo Taurino repasa la historia de la tauromaquia en Bilbao y Bizkaia. Está configurad...,cultura,Auditorios; Museos; Galerías de arte y salas de exposiciones,Bilbao,bizkaia,"Plaza de Toros de Vista Alegre. Martín Agüero, 1",43.2555485729847,-2.9375311059832687,944 448 698,info@plazatorosbilbao.com,http://www.plazatorosbilbao.com,True,True,True,True,True,2
,https://turismoa.euskadi.eus/es/top10/museos/casa-de-juntas-de-gernika/webtur00-content/es/,Casa de Juntas de Gernika,La Casa de Juntas de Gernika es uno de los símbolos más representativos de los vasc...,cultura,Auditorios; Museos; Galerías de arte y salas de exposiciones,Gernika-Lumo,bizkaia,"Allende Salazar, s/n",43.3130368,-2.679673699999966,946 251 138,batzar.etxea@bizkaia.org,http://www.jjggbizkaia.net,True,True,False,True,False,4
,https://turismoa.euskadi.eus/es/museos/museo-euskal-herria/webtur00-content/es/,Museo Euskal Herria,"Situado en el núcleo monumental de Gernika, el Palacio de Alegría acoge el Museo Eu...",cultura,Auditorios; Museos; Galerías de arte y salas de exposiciones,Gernika-Lumo,bizkaia,"Palacio Alegría. Allende Salazar, 5",43.31405090317512,-2.679580941733544,946 255 451,euskalherriamuseoa@bizkaia.eus,http://bizkaikoa.bizkaia.eus/detalleContenido.asp?id=49&t=1,True,True,False,True,False,4
,https://turismoa.euskadi.eus/es/museos/museo-del-pescador/webtur00-content/es/,Museo del Pescador,"Sobre el Puerto Viejo de Bermeo se alza la histórica Torre de Ercilla, declarada Monumento...",cultura,Auditorios; Museos; Galerías de arte y salas de exposiciones,Bermeo,bizkaia,"Torre Ercilla. Torronteroko Enparantza, s/n",43.42035484901137,-2.721133824987652,946 881 171,arrantzaleenmuseoa@bizkaia.eus,http://bizkaikoa.bizkaia.eus/detalleContenido.asp?id=52&t=1,True,False,False,False,False,2
,https://turismoa.euskadi.eus/es/museos/museo-maritimo-ria-de-bilbao/webtur00-content/es/,Museo Marítimo Itsasmuseum Bilbao,"La zona exterior, de 20.000 m2, alberga los antiguos diques del astillero Euskalduna, donde encue...",cultura,Auditorios; Museos; Galerías de arte y salas de exposiciones,Bilbao,bizkaia,"Muelle Ramón de la Sota, 1",43.26614725,-2.94633913,946 085 500,info@itsasmuseum.eus,https://www.itsasmuseum.eus,True,True,True,True,False,4
,https://turismoa.euskadi.eus/es/museos/museo-de-orozko/webtur00-content/es/,Museo de Orozko,"Gracias a su exposición permanente, puesto que realiza las funciones propias de una oficin...",cultura,Auditorios; Museos; Galerías de arte y salas de exposiciones,Orozko,bizkaia,"Zubiaur Plaza, s/n",43.10709769598927,-2.911160849668136,946 339 823,museoa.orozko@bizkaia.org,https://www.orozkomuseoa.eus/,True,True,False,False,False,2
,https://turismoa.euskadi.eus/es/museos/museo-de-la-mineria-del-pais-vasco/webtur00-content/es/,Museo de la Minería del País Vasco,El Museo de la Minería del País Vasco está dedicado al estudio y difusi&oacu...,cultura,Auditorios; Museos; Galerías de arte y salas de exposiciones,Abanto y Ciérvana-Abanto Zierbena,bizkaia,"Bº Campodiego, s/n",43.31143489999999,-3.0700597999999677,946 363 682,informacion@meatzaldea.eus,https://meatzaldea.eus/,True,False,False,True,False,2
,https://turismoa.euskadi.eus/es/museos/fundacion-museo-de-la-paz-de-gernika/webtur00-content/es/,Museo de la Paz de Gernika,El bombardeo contado por las personas que lo vivieron. ¿Qué pasa actualmente con lo...,cultura,Auditorios; Museos; Galerías de arte y salas de exposiciones,Gernika-Lumo,bizkaia,"Foru Plaza, 1",43.31502700888991,-2.678570839405663,946 270 213,museoa@gernika-lumo.net,https://www.museodelapaz.org/,True,True,False,True,False,4
,https://turismoa.euskadi.eus/es/museos/ferreria-de-el-pobal/webtur00-content/es/,Ferrería de El Pobal,"El conjunto visitable, emplazado en un bello marco natural a orillas del río Barbad&uacute...",cultura,Auditorios; Museos; Galerías de arte y salas de exposiciones,Muskiz,bizkaia,"Carretera Muskiz-Sopuerta. Barrio de El Pobal, s/n.",43.29737265581306,-3.1255993544921257,629 271 516,elpobal@bizkaia.eus,http://bizkaikoa.bizkaia.eus/detalleContenido.asp?id=60&t=1,True,True,True,False,False,2
,https://turismoa.euskadi.eus/es/museos/museo-plasentia-butron/webtur00-content/es/,Museo Plasentia Butron,"Situado en el casco antiguo de Plentzia, en un edificio del siglo XVI que fue el consistorio de l...",cultura,Auditorios; Museos; Galerías de arte y salas de exposiciones,Plentzia,bizkaia,"Goienkale, 27",43.40474592859152,-2.94812713104508,946 773 725,contacto@museoplentzia.org,http://www.museoplentzia.org,True,True,True,True,False,4
,https://turismoa.euskadi.eus/es/museos/museo-vasco-de-historia-de-la-medicina-y-de-la-ciencia/webtur00-content/es/,Museo Vasco de Historia de la Medicina y de la Ciencia,"El Museo Vasco de Historia de la Medicina y de la Ciencia inició su andadura en 1974, en l...",cultura,Auditorios; Museos; Galerías de arte y salas de exposiciones,Leioa,bizkaia,"UPV - EHU, Campus Leioa, Edificio de la Biblioteca Central. Sarriena auzoa",43.331388394927615,-2.9689051454163384,946 012 790,museomed@ehu.es,https://www.ehu.eus/es/web/basque-museum-medicine,True,True,True,True,False,2
,https://turismoa.euskadi.eus/es/museos/parque-de-los-pueblos-de-europa/webtur00-content/es/,Parque de los Pueblos de Europa,El Parque de los Pueblos de Europa fue inaugurado en 1991.Se trata de un hermoso y apacible lugar...,cultura,Auditorios; Museos; Galerías de arte y salas de exposiciones,Gernika-Lumo,bizkaia,Allende Salazar s/n (junto a la Casa de Juntas de Gernika),43.3137921652142,-2.6805843796539386,,,,True,False,True,True,False,4
,https://turismoa.euskadi.eus/es/museos/museo-de-arte-e-historia-de-zarautz/webtur00-content/es/,Museo de Arte e Historia de Zarautz,"La Torre-Campanario, el edificio más antiguo de la Villa (s. XV), aloja en su interior el ...",cultura,Auditorios; Museos; Galerías de arte y salas de exposiciones,Zarautz,gipuzkoa,"Elizaurre, 1",43.28652029707758,-2.1775718466270746,943 835 281,info@menosca.com,http://www.menosca.com,True,True,False,False,False,2
,https://turismoa.euskadi.eus/es/museos/parque-cultural-de-zerain/webtur00-content/es/,Parque Cultural de Zerain,El Museo Etnográfico alberga más de 200 elementos que expresan el proceso hist&oacu...,cultura,Auditorios; Museos; Galerías de arte y salas de exposiciones,Zerain,gipuzkoa,"Herriko Plaza, s/n",43.01280932708332,-2.273073426458716,943 801 505,turismobulegoa@zerain.eus,https://www.zerain.eus/es/zerbitzuak/museo-etnografico/,True,False,False,True,False,2
,https://turismoa.euskadi.eus/es/museos/museo-de-la-sidra-vasca-sagardoetxea/webtur00-content/es/,Sagardoetxea - Museo de la Sidra Vasca,"El espacio museístico está dotado de fotografías, paneles informativos, jueg...",cultura,Auditorios; Museos; Galerías de arte y salas de exposiciones,Astigarraga,gipuzkoa,"Kale Nagusia, 48",43.2812606377651,-1.947029328598319,943 550 575,info@sagardoarenlurraldea.eus,https://sagardoarenlurraldea.eus/eu/,True,False,True,True,False,4
,https://turismoa.euskadi.eus/es/museos/soinuenea/webtur00-content/es/,Soinuenea,"Asimismo, tiene una biblioteca de más de 5.800 unidades, una fonoteca con más de 4....",cultura,Auditorios; Museos; Galerías de arte y salas de exposiciones,Oiartzun,gipuzkoa,"Tornola kalea, 6",43.28829358,-1.83831161,943 493 578,soinuenea@soinuenea.eus,https://www.soinuenea.eus/es/,True,True,False,True,False,2
,https://turismoa.euskadi.eus/es/museos/museo-vasco-museo-arqueologico-etnografico-e-historico-vasco/webtur00-content/es/,Museo Vasco. Museo Etnográfico e Histórico Vasco,TEMPORALMENTE CERRADOEl Museo Vasco muestra la etnografía del pueblo vasco a trav&eac...,cultura,Auditorios; Museos; Galerías de arte y salas de exposiciones,Bilbao,bizkaia,"2 accesos: Plaza Miguel de Unamuno, 4 // Calle Cruz, 4",43.25818180719177,-2.9216793673155053,944 155 423,administrazioa@euskalmuseoa.eus,https://www.euskalmuseoa.eus/es/hasiera/,True,True,False,True,False,4
,https://turismoa.euskadi.eus/es/museos/museo-de-arte-e-historia-de-durango/webtur00-content/es/,Museo de Arte e Historia de Durango,"El Museo de Arte e Historia de Durango tiene su sede en el Palacio de Etxezarreta, construido en ...",cultura,Auditorios; Museos; Galerías de arte y salas de exposiciones,Durango,bizkaia,"San Agustinalde, 16",43.16689294,-2.63308179,946 030 020,museo@durango.eus,https://es.durangomuseoa.eus/,True,False,True,True,False,2
,https://turismoa.euskadi.eus/es/museos/museo-de-bellas-artes-de-bilbao/webtur00-content/es/,Museo de Bellas Artes de Bilbao,Caracterizada por su amplitud cronológica y por la diversidad de las manifestaciones art&i...,cultura,Auditorios; Museos; Galerías de arte y salas de exposiciones,Bilbao,bizkaia,"Museo Plaza, 2",43.26597414,-2.93784979,944 396 060,info@museobilbao.com,https://bilbaomuseoa.eus/,True,True,True,True,False,2
,https://turismoa.euskadi.eus/es/museos/sede-central-del-servicio-de-patrimonio-historico-artistico-y-arqueologico-de-la-diputacion-foral-de-alava/webtur00-content/es/,Servicio de Patrimonio Histórico-Artístico y Arqueológico de la Diputación Foral de Álava (Sede Central),Se debe llamar a este servicio para concertar las visitas guiadas por los museos que pertenecen a...,cultura,Auditorios; Museos; Galerías de arte y salas de exposiciones,Vitoria-Gasteiz,araba,"Plaza de la Provincia 5, 3ª planta",42.84157305,-2.67964698,945 181 818,afa-dfa@araba.eus,http://www.araba.eus,True,True,True,True,False,4
,https://turismoa.euskadi.eus/es/museos/museo-simon-bolivar/webtur00-content/es/,Museo Simón Bolívar,El Museo Simón Bolívar alberga colecciones que informan de la vida de los vizca&iac...,cultura,Auditorios; Museos; Galerías de arte y salas de exposiciones,Ziortza-Bolibar,bizkaia,"Errementarikua Baserria. Beko Kale, 4",43.24996582,-2.54819904,946 164 114,info@simonbolivarmuseoa.com,http://www.simonbolivarmuseoa.com,True,True,True,True,True,2
,https://turismoa.euskadi.eus/es/museos/museo-de-la-miel/webtur00-content/es/,Museo de la Miel,"El Museo de la Miel de Murgia, situado en pleno casco urbano, nos adentra en el extraordinario mu...",cultura,Auditorios; Museos; Galerías de arte y salas de exposiciones,Zuia,araba,Casa Oregi<br/>Calle Domingo de Sautu,42.95640614,-2.81780559,945 430 167,,,True,False,True,True,False,4
,https://turismoa.euskadi.eus/es/museos/obras-de-restauracion-de-la-catedral-de-santa-maria/webtur00-content/es/,Visitas guiadas a la Catedral de Santa María,La Catedral de Santa María o Catedral Vieja es uno de los tesoros de Vitoria-Gasteiz. Est&...,cultura,Auditorios; Museos; Galerías de arte y salas de exposiciones,Vitoria-Gasteiz,araba,"Plaza Santa María, 3",42.8504881,-2.67228318,945 255 135,visitas@catedralvitoria.eus,https://www.catedralvitoria.eus/es/inicio/,True,True,True,True,False,4
,https://turismoa.euskadi.eus/es/museos/museo-de-coches-antiguos-y-clasicos-torre-de-loizaga/webtur00-content/es/,Museo de coches antiguos y clásicos (Torre de Loizaga),"El castillo de Concejuelo, majestuosa fortaleza ubicada en la localidad vizcaína de Galdam...",cultura,Auditorios; Museos; Galerías de arte y salas de exposiciones,Galdames,bizkaia,TORRE LOIZAGA. Bº Concejuelo,43.25298829680561,-3.1309242108520507,672 248 759,info@torreloizaga.com,http://www.torreloizaga.com,True,True,False,True,False,2
,https://turismoa.euskadi.eus/es/museos/boinas-la-encartada-museoa/webtur00-content/es/,La Encartada Fabrika Museoa,"Situada a las afueras de Balmaseda, en la ribera del Cadagua, La Encartada Fabrika Museoa pretend...",cultura,Auditorios; Museos; Galerías de arte y salas de exposiciones,Balmaseda,bizkaia,"Barrio El Peñueco, 11",43.17615576755257,-3.212533476057388,946 800 778,laencartada@bizkaia.eus,http://www.bizkaikoa.bizkaia.eus/laencartada,True,False,False,True,False,2
,https://turismoa.euskadi.eus/es/museos/museo-del-licor-manuel-acha/webtur00-content/es/,Museo del Licor Manuel Acha,"El primer Museo del Licor de Euskadi recorre la trayectoria de la destilería Manuel Acha, ...",cultura,Auditorios; Museos; Galerías de arte y salas de exposiciones,Amurrio,araba,"Maskuribai, 4",43.0495068,-3.0001852999999983,945 891 812,info@destileriasacha.com,https://www.destileriasacha.com/,True,False,False,True,False,2
,https://turismoa.euskadi.eus/es/museos/rialia-museo-de-la-industria/webtur00-content/es/,Rialia Museo de la Industria,"La Villa de Portugalete, a orillas de la Ría, alberga a Rialia Museo de la Industria.Riali...",cultura,Auditorios; Museos; Galerías de arte y salas de exposiciones,Portugalete,bizkaia,"Paseo de la Canilla, s/n",43.31875132650195,-3.013912217443817,944 724 384,rialia@portugalete.org,https://web.bizkaia.eus/es/-/rialia-industria-museoa,True,True,True,False,False,2
,https://turismoa.euskadi.eus/es/museos/ecomuseo-del-pastoreo/webtur00-content/es/,Ecomuseo del Pastoreo,"El Ecomuseo del Pastoreo, ubicado en un caserío del siglo XVI, ofrece la posibilidad de co...",cultura,Auditorios; Museos; Galerías de arte y salas de exposiciones,Legazpi,gipuzkoa,Caserío Erraizabal,43.02460913857051,-2.338391647607409,943 730 428,mirandaola@lenbur.com,,True,True,False,True,False,4
,https://turismoa.euskadi.eus/es/museos/el-rincon-del-pan/webtur00-content/es/,El Rincón del Pan,Muestra las características de la tradición molinera y panadera en la comarca de Ur...,cultura,Auditorios; Museos; Galerías de arte y salas de exposiciones,Legazpi,gipuzkoa,Caserío Igaralde-Goena<br/>Barrio Brinkola,43.02457537334615,-2.3348130851807127,943 730 428,mirandaola@lenbur.com,,True,True,True,False,False,2
,https://turismoa.euskadi.eus/es/museos/museo-del-hierro-vasco/webtur00-content/es/,Museo del Hierro Vasco,"Además, muestra los elementos originales de la antigua fábrica ""Fundiciones Sa...",cultura,Auditorios; Museos; Galerías de arte y salas de exposiciones,Legazpi,gipuzkoa,"Mirandaola Parkea. Telleriarte auzoa, s/n",43.0353114,-2.3385631,943 730 428,mirandaola@lenbur.com,https://lenbur.com/es/museos/museo-del-hierro-vasco/,True,True,False,True,False,2
,https://turismoa.euskadi.eus/es/museos/casa-ardixarra-centro-de-interpretacion-medieval/webtur00-content/es/,Casa Ardixarra,"Además de ser una de las casas más antiguas de nuestro entorno, Ardixarra es uno de...",cultura,Auditorios; Museos; Galerías de arte y salas de exposiciones,Segura,gipuzkoa,"Kale Nagusia, 12",43.0099457,-2.252746600000023,943 801 749,turismoa@segura.eus,https://ardixarra.eus/,True,False,True,True,False,2
,https://turismoa.euskadi.eus/es/museos/museo-romano-oiasso/webtur00-content/es/,Museo Romano Oiasso,"Es, además, un espacio de desarrollo de actividades culturales que guardan relación...",cultura,Auditorios; Museos; Galerías de arte y salas de exposiciones,Irun,gipuzkoa,"Eskoleta, 1",43.33980535489764,-1.7877681269530967,943 639 353,info-oiassomuseo@irun.org,https://www.oiasso.com,True,True,False,True,False,4
,https://turismoa.euskadi.eus/es/museos/arenatzarte-museo-al-aire-libre/webtur00-content/es/,ARENATZarte museo al aire libre,ARENATZarte representa la armonía entre una diversa a la par que exótica naturaleza...,cultura,Auditorios; Museos; Galerías de arte y salas de exposiciones,Güeñes,bizkaia,"Enkarterri Kalea, 5",43.21092831264088,-3.0950754539673064,649 890 320,arenatzarte@enkartur.eus,,True,True,False,True,False,4
,https://turismoa.euskadi.eus/es/museos/casa-del-parque-aizkorri-aratz/webtur00-content/es/,Casa del parque Aizkorri-Aratz,"En este sentido, ofrece información completa acerca de la naturaleza y la vida en el munic...",cultura,Auditorios; Museos; Galerías de arte y salas de exposiciones,Asparrena,araba,"Intuxi, 48 (Zentral hidroelektrikoaren ondoan)",42.8953792,-2.3113488999999845,945 386 964,parketxe.aizkorriaratz@gmail.com,https://aizkorriaratzparkea.eus/,True,False,False,False,False,2
,https://turismoa.euskadi.eus/es/museos/centro-de-la-biodiversidad-de-euskadi/ekoetxea/webtur00-content/es/,Ekoetxea Urdaibai,La Reserva de la Biosfera de Urdaibai engloba 22.000 hectáreas y la integra un mosaico de ...,cultura,Auditorios; Museos; Galerías de arte y salas de exposiciones,Busturia,bizkaia,"Barrio San Bartolomé, 35",43.37507539044977,-2.69774456812286,946 870 402,info.urdaibai@ekoetxea.eus,https://ekoetxea.eus/,True,True,False,True,False,2
,https://turismoa.euskadi.eus/es/museos/topic-centro-internacional-del-titere-de-tolosa/webtur00-content/es/,TOPIC. Centro Internacional del Títere de Tolosa,Se trata del único centro de toda Europa dedicado íntegramente al mundo de las mari...,cultura,Auditorios; Museos; Galerías de arte y salas de exposiciones,Tolosa,gipuzkoa,Plaza de Euskal Herria,43.13815603635745,-2.074853628873825,943 650 414,cit@cittolosa.com,https://topic.eus/,True,True,False,False,False,2
,https://turismoa.euskadi.eus/es/museos/museo-de-la-industria-armera/webtur00-content/es/,Museo de la Industria Armera,La ciudad de Eibar dispone de un museo dedicado a la conservación y difusión de la ...,cultura,Auditorios; Museos; Galerías de arte y salas de exposiciones,Eibar,gipuzkoa,"Bista Eder, 10 5º",43.18451420720174,-2.469616601782945,943 708 446,museoa@eibar.eus,https://armia-eibar.eus/eu,True,False,True,False,False,4
,https://turismoa.euskadi.eus/es/museos/faro-de-santa-catalina-centro-de-interpretacion-de-la-navegacion/webtur00-content/es/,Faro de Santa Catalina,El Faro de Santa Catalina es un centro de interpretación de la técnica de...,cultura,Auditorios; Museos; Galerías de arte y salas de exposiciones,Lekeitio,bizkaia,"Avenida Santa Catalina, 65",43.377167402933146,-2.5098609924316406,946 844 017,turismo@lekeitio.eus,https://lekeitioturismo.eus/es/,True,True,True,True,False,2
,https://turismoa.euskadi.eus/es/museos/espacio-ludico-cultural-san-marcos/webtur00-content/es/,Fuerte de San Marcos,"Enclavado en el monte que le da nombre, el Fuerte de San Marcos constituye uno de los lugares m&a...",cultura,Auditorios; Museos; Galerías de arte y salas de exposiciones,Errenteria,gipuzkoa,"San Marko Bidea, s/n",43.29731733169746,-1.9141638278961184,943 449 638,turismoa@errenteria.eus,,True,True,False,False,False,4
,https://turismoa.euskadi.eus/es/museos/azkuna-zentroa/webtur00-content/es/,AZKUNA Zentroa,"AZKUNA Zentroa está ubicado en pleno centro de la capital vizcaína, y es uno de los...",cultura,Auditorios; Museos; Galerías de arte y salas de exposiciones,Bilbao,bizkaia,"Plaza Arriquibar, 4",43.25993925984833,-2.9364873943038674,944 014 014,info@azkunazentroa.com,https://www.azkunazentroa.eus/,True,False,False,True,False,2
,https://turismoa.euskadi.eus/es/top10/museos/cristobal-balenciaga-museoa/webtur00-content/es/,Cristóbal Balenciaga Museoa,El Cristóbal Balenciaga Museoa está dedicado al célebre diseñador get...,cultura,Auditorios; Museos; Galerías de arte y salas de exposiciones,Getaria,gipuzkoa,"Aldamar Parkea, 6",43.3019201,-2.2048875000000407,943 008 840,info@cristobalbalenciagamuseoa.com,https://www.cristobalbalenciagamuseoa.com/,True,True,False,False,False,4
,https://turismoa.euskadi.eus/es/museos/ataria-centro-de-interpretacion-de-los-humedales-de-salburua/webtur00-content/es/,Ataria. Centro de Interpretación de los humedales de Salburua,Ataria es el Centro de Interpretación de los humedales de Salburua. El objetivo de este eq...,cultura,Auditorios; Museos; Galerías de arte y salas de exposiciones,Vitoria-Gasteiz,araba,"Paseo de la Biosfera, 4",42.8594823204383,-2.6479196548461914,945 162 616,ataria@vitoria-gasteiz.org,http://www.vitoria-gasteiz.org/ataria,True,False,False,True,False,2
,https://turismoa.euskadi.eus/es/museos/nautilus-centro-de-interpretacion-geologica/webtur00-content/es/,"Nautilus, Centro de Interpretación Geológica de Mutriku","Nautilus, el Centro de Interpretación Geológica de Mutriku nace para dar respuesta ...",cultura,Auditorios; Museos; Galerías de arte y salas de exposiciones,Mutriku,gipuzkoa,"Jose Antonio Ezeiza, 3",43.306664329202846,-2.3895720883606373,943 603 259,nautilus@mutriku.net,https://www.mutriku.eus/es/turismo/que-hacer-mutriku/museo-nautilus,True,False,True,True,False,2
,https://turismoa.euskadi.eus/es/museos/centro-de-interpretacion-del-camino-de-santiago/webtur00-content/es/,Centro de Interpretación del Camino de Santiago,"CERRADO TEMPORALMENTEEl Centro de Interpretación del Camino de Santiago, en Orio, ofrece i...",cultura,Auditorios; Museos; Galerías de arte y salas de exposiciones,Orio,gipuzkoa,"Kale Nagusia, 17",43.2768432,-2.126932799999963,943 83 55 65,orioturismo@gmail.com,http://donejakue.orio.eus,True,True,False,True,False,4
,https://turismoa.euskadi.eus/es/museos/centro-del-visitante-aizpitta/webtur00-content/es/,Centro del visitante Aizpitta,El Centro del visitante Aizpitta muestra de manera amena y didáctica el proceso completo d...,cultura,Auditorios; Museos; Galerías de arte y salas de exposiciones,Zerain,gipuzkoa,"Herriko Plaza, z/g",43.0150313644794,-2.298966772647077,943 801 505,turismobulegoa@zerain.eus,https://www.zerain.eus,True,False,False,True,False,4
,https://turismoa.euskadi.eus/es/museos/centro-de-interpretacion-aizkorriko-ataria/webtur00-content/es/,Anduetza Parketxea,"Zegama constituye la puerta de entrada del Parque Natural de Aizkorri-Aratz, y alberga uno de los...",cultura,Auditorios; Museos; Galerías de arte y salas de exposiciones,Zegama,gipuzkoa,"Barrio San Bartolomé, 13",42.97592115633981,-2.293179363876334,943 802 187,anduetza@gipuzkoanatura.eus,https://www.gipuzkoanatura.eus/es/parketxes/anduetza,True,False,False,True,False,4
,https://turismoa.euskadi.eus/es/museos/izenaduba-basoa/webtur00-content/es/,Izenaduba Basoa,A través de las visitas teatralizadas que se ofrecen disfrutarás de un recorrido m&...,cultura,Auditorios; Museos; Galerías de arte y salas de exposiciones,Mungia,bizkaia,Landetxo Goikoa,43.3559551,-2.8528384999999616,946 740 061,olentzero@izenaduba.com,https://www.izenaduba.com/,True,False,True,True,False,2
,https://turismoa.euskadi.eus/es/museos/centro-vasco-de-interpretacion-de-la-memoria-historica/webtur00-content/es/,Centro Vasco de Interpretación de la Memoria Histórica,"El Centro Vasco de Interpretación de la Memoria Historia, en Elgeta, gira en torno a la Gu...",cultura,Auditorios; Museos; Galerías de arte y salas de exposiciones,Elgeta,gipuzkoa,"Maala Kalea, 2",43.137189,-2.4866561000000047,943 768 022,turismo@debagoiena.eus,https://www.elgeta.eus/es/conocer/memoria/elgeta-y-la-guerra-civil-1,True,False,False,True,False,2
,https://turismoa.euskadi.eus/es/museos/albaola-factoria-maritima-vasca/webtur00-content/es/,"Albaola, Factoria Marítima Vasca",Albaola Itsas Kultur Faktoria permanecerá cerrada al público desde el 2 de no...,cultura,Auditorios; Museos; Galerías de arte y salas de exposiciones,Pasaia,gipuzkoa,Ondartxo ibilbidea 1,43.32921692577922,-1.925866680256604,943 392 426,info@albaola.org,https://albaola.org/,True,True,False,True,False,2
,https://turismoa.euskadi.eus/es/museos/centro-de-interpretacion-de-la-via-verde-del-ferrocarril-vasco-navarro/webtur00-content/es/,Centro de Interpretación de la Vía Verde del Ferrocarril Vasco-Navarro,El Centro de Interpretación de la Vía Verde del Ferrocarril Vasco-Navarro est&aacut...,cultura,Auditorios; Museos; Galerías de arte y salas de exposiciones,Campezo/Kanpezu,araba,"Calle La Estación, s/n",42.68973282171065,-2.3974444363846037,945 410 577,arabakomendialdea@arabakomendialdea.eus,https://www.arabakomendialdea.eus/,True,False,False,False,False,2
,https://turismoa.euskadi.eus/es/museos/taller-museo-santxotena/webtur00-content/es/,Museo Taller  Santxotena,"Se trata de un espacio abierto, didáctico, que reúne la obra de Santxotena, desde b...",cultura,Auditorios; Museos; Galerías de arte y salas de exposiciones,Artziniega,araba,"Barrio Barrataguren, 2A",43.12538905855585,-3.1188293060126853,945 396 664,tlafragua@santxotena.org,https://santxotena.org/,True,True,False,True,False,2
,https://turismoa.euskadi.eus/es/museos/urdaibai-bird-center/webtur00-content/es/,Urdaibai Bird Center,Todos los visitantes que quieran conocer más de cerca la naturaleza que entraña la&...,cultura,Auditorios; Museos; Galerías de arte y salas de exposiciones,Gautegiz Arteaga,bizkaia,"Orueta, 7",43.346862726784565,-2.6573838058350248,699 839 202,urdaibai@birdcenter.org,https://www.birdcenter.org/,True,True,False,True,False,4
,https://turismoa.euskadi.eus/es/museos/centro-de-atencion-e-interpretacion-del-valle-salado-de-anana/webtur00-content/es/,Centro de Atención e Interpretación del Valle Salado de Añana,La visita al Valle Salado de Añana comienza en el Centro de Atención e Interpretaci...,cultura,Auditorios; Museos; Galerías de arte y salas de exposiciones,Añana,araba,"Calle Real, 32",42.80116,-2.984954499999958,945 351 111,reservas@vallesalado.com,http://www.vallesalado.com,True,True,True,True,False,2
,https://turismoa.euskadi.eus/es/museos/centro-de-interpretacion-txingudi-ekoetxea/webtur00-content/es/,Ekoetxea Txingudi,"En la sala principal el visitante encontrará una maqueta de la bahía, paneles infor...",cultura,Auditorios; Museos; Galerías de arte y salas de exposiciones,Irun,gipuzkoa,Parque Ecológico Plaiaundi,43.34686571777646,-1.7931823602966688,943 619 389,info.txingudi@ekoetxea.eus,https://ekoetxea.eus/,True,True,False,True,False,2
,https://turismoa.euskadi.eus/es/museos/centro-de-interpretacion-historica-de-santurtzi/webtur00-content/es/,Centro de Interpretación Histórica de Santurtzi,El Centro de Interpretación Histórica de Santurtzi pretende reflejar los hechos his...,cultura,Auditorios; Museos; Galerías de arte y salas de exposiciones,Santurtzi,bizkaia,"Palacio Casa Torre, Calle Sabino Arana, 5",43.329564364147714,-3.033692320237724,944 205 850,serantes@serantes.com,https://www.serantes.com/espacio/casa-torre-jauregia/,True,False,False,True,False,2
,https://turismoa.euskadi.eus/es/museos/centro-de-la-interpretacion-de-la-pesca-agurtza/webtur00-content/es/,Barco Museo Agurtza,Se ha convertido en el Centro de Interpretación de la Pesca.En él podremos conocer ...,cultura,Auditorios; Museos; Galerías de arte y salas de exposiciones,Santurtzi,bizkaia,"Paseo Reina Victoria, s/n",43.3269651187234,-3.0237122087066903,944 839 494,turismo@santurtzi.eus,https://visitsanturtzi.eus/experiencias/barco-museo-agurtza/,True,True,False,True,False,2
,https://turismoa.euskadi.eus/es/museos/barco-museo-mater/webtur00-content/es/,Mater Barco Ecoactivo,"Construido por la familia de pescadores Etxegoien en 1990, pescó anchoas, verdeles, sardin...",cultura,Auditorios; Museos; Galerías de arte y salas de exposiciones,Pasaia,gipuzkoa,Calle Arraunlari s/n,43.32580546749025,-1.9216874311828176,619 814 225,info@mater.eus,https://mater.eus/,True,False,True,True,False,2
,https://turismoa.euskadi.eus/es/museos/centro-de-interpretacion-de-arma-plaza/webtur00-content/es/,Centro de Interpretación de Arma Plaza,El Centro de Interpretación sito en la Arma Plaza de Hondarribia ofrece todo tipo de infor...,cultura,Auditorios; Museos; Galerías de arte y salas de exposiciones,Hondarribia,gipuzkoa,"Arma Plaza, 9",43.36370240000001,-1.791736399999991,943 643 677,info@armaplaza.eus,http://www.armaplaza.eus/es/,True,True,False,True,False,4
,https://turismoa.euskadi.eus/es/museos/centro-de-interpretacion-de-debagoiena/webtur00-content/es/,Centro de Interpretación de Debagoiena,"Desde allí se organizan multitud de actividades de diversa índole (turismo activo, ...",cultura,Auditorios; Museos; Galerías de arte y salas de exposiciones,Oñati,gipuzkoa,"Arantzazu auzoa, 2 (Santuario de Arantzazu)",42.979608,-2.400756300000012,943 796 463,infoturismo@debagoiena.eus,https://www.turismodebagoiena.eus/eu/,True,False,False,False,False,4
,https://turismoa.euskadi.eus/es/museos/centro-de-visitantes-leitzaran/webtur00-content/es/,Centro de Visitantes Leitzaran,"Así, el Centro de Interpretación del Agua pretende mostrar a los visitantes los val...",cultura,Auditorios; Museos; Galerías de arte y salas de exposiciones,Andoain,gipuzkoa,"Parque Otieta, barrio Leizotz, 48 bajo",43.20255158521076,-2.0111175264892154,943 300 929,info@leitzaran-andoain.eus,http://www.leitzaran-andoain.eus/es/,True,True,True,True,False,4
,https://turismoa.euskadi.eus/es/museos/chillida-lantoki/webtur00-content/es/,Chillida Lantoki,Chillida Lantoki es un espacio en el que el arte y la industria van de la mano. El museo se ...,cultura,Auditorios; Museos; Galerías de arte y salas de exposiciones,Legazpi,gipuzkoa,"Papelera Azpikoetxe Kalea, s/n",43.05342734037986,-2.330736149737504,943 730 428,mirandaola@lenbur.com,http://www.lenbur.com,True,True,True,True,False,2
,https://turismoa.euskadi.eus/es/museos/centro-de-interpretacion-de-la-pasion-viviente/webtur00-content/es/,Centro de Interpretación de la Pasión Viviente,El Centro de Interpretación de la Pasión Viviente se encuentra en el convento de Sa...,cultura,Auditorios; Museos; Galerías de arte y salas de exposiciones,Balmaseda,bizkaia,"Convento de Santa Clara. Campo de las Monjas, 1",43.19273914383311,-3.1973875644180194,946 801 438,c.pasion@balmaseda.eus,https://www.turismo.balmaseda.eus/,True,False,False,True,False,4
,https://turismoa.euskadi.eus/es/museos/museo-de-historia-villa-de-balmaseda/webtur00-content/es/,Museo de Historia Villa de Balmaseda,El Museo de Historia Villa de Balmaseda está ubicado en la iglesia de San Juan del Moral y...,cultura,Auditorios; Museos; Galerías de arte y salas de exposiciones,Balmaseda,bizkaia,"Martin Mendia, 12",43.19362888482128,-3.194765508984343,657 795 806,pbsanudo@balmaseda.eus,https://www.turismo.balmaseda.eus/,True,True,True,True,False,2
,https://turismoa.euskadi.eus/es/museos/txakolingunea/webtur00-content/es/,Museo del txakoli Txakolingunea,"Txakolingunea, el Museo del Txakoli, está situado a la entrada de Bakio, localidad referen...",cultura,Auditorios; Museos; Galerías de arte y salas de exposiciones,Bakio,bizkaia,"Basigoko Bide Nagusia, 3",43.41685508728455,-2.812558943902559,94 602 85 13,txakolingunea@bizkaia.eus,https://bizkaikoa.bizkaia.eus/detalleContenido.asp?id=250&t=1,True,True,False,True,False,4
,https://turismoa.euskadi.eus/es/museos/museo-hontza/webtur00-content/es/,Museo de Ciencias Naturales Hontza,Su exposición permanente tiene alrededor de 1.500 ejemplares de 27 grupos y cuen...,cultura,Auditorios; Museos; Galerías de arte y salas de exposiciones,Mañaria,bizkaia,"Ebaristo Bustinza Kirikiño Kalea, 18",43.13766023676179,-2.661167687835704,946 216 555,hontza@hontzamuseoa.eus,https://hontzamuseoa.eus/,True,True,True,False,False,4
,https://turismoa.euskadi.eus/es/museos/museo-laboratorium/webtur00-content/es/,Museo Laboratorium,"El museo Laboratorium de Bergara, ubicado en el palacio Errekalde, cuenta la historia d...",cultura,Auditorios; Museos; Galerías de arte y salas de exposiciones,Bergara,gipuzkoa,Juan Irazabal Pasealekua 1,43.1174096,-2.4112609,943 769 003,laboratorium@bergara.eus,https://www.laboratorium.eus/,True,True,False,False,False,4
,https://turismoa.euskadi.eus/es/museos/santurtzi-itsasoa-museoa/webtur00-content/es/,Santurtzi Itsasoa Museoa,Santurtzi es una localidad cuya historia ha estado siempre vinculada al mar. Su ubicación ...,cultura,Auditorios; Museos; Galerías de arte y salas de exposiciones,Santurtzi,bizkaia,"Puerto Pesquero, 20",43.3305878,-3.030861400000049,944 839 494,turismo@santurtzi.eus,https://visitsanturtzi.eus/museo-del-mar-itsas-museoa/,True,False,False,True,False,4
,https://turismoa.euskadi.eus/es/museos/casa-de-juntas-de-gerediaga/webtur00-content/es/,Casa de Juntas de Gerediaga,"La Casa de Juntas de Gerediaga, situada en Abadiño, es el lugar en el que antiguamente se ...",cultura,Auditorios; Museos; Galerías de arte y salas de exposiciones,Abadiño,bizkaia,Gerediaga,43.17037870259486,-2.606052967459165,,,https://jjggbizkaia.eus/es/sedes/casa-de-juntas-de-gerediaga,True,False,False,True,False,4
,https://turismoa.euskadi.eus/es/museos/el-museo-dolomitas-un-viaje-al-pasado/webtur00-content/es/,"El Museo Dolomitas, un viaje al pasado",La gente que lo visite podrá encontrar un vestigio de lo que un día fue el pul...,cultura,Auditorios; Museos; Galerías de arte y salas de exposiciones,Karrantza Harana/Valle de Carranza,bizkaia,"Barrio Ambasaguas, s/n<br/>(Junto a la oficina de Turismo)",43.23973661003876,-3.357873814016794,696 446 301,museodolomitas@gmail.com,https://www.cuevadepozalagua.eus/entorno,True,False,True,True,False,2
,https://turismoa.euskadi.eus/es/museos/museo-barandiaran/webtur00-content/es/,"Museo Barandiaran, una visita mágica","Visitar el Museo Barandiaran, es sinónimo de adentrarse en el corazón de la cultura...",cultura,Auditorios; Museos; Galerías de arte y salas de exposiciones,Ataun,gipuzkoa,Larruntza Errota z/g,42.978164939122216,-2.1817975767212374,943 18 03 35,barandiaran@gipuzkoanatura.eus,,True,True,True,True,False,4
,https://turismoa.euskadi.eus/es/museos/centro-del-queso-eginoko-artzaia/webtur00-content/es/,Centro del Queso Eginoko Artzaia,Es precisamente esta actividad ancestral la que le confiere un atractivo único: el queso &...,cultura,Auditorios; Museos; Galerías de arte y salas de exposiciones,Asparrena,araba,"San Esteban, 6",42.8708716,-2.2633014000000458,608 739 970,centrodelqueso@outlook.es,https://turismo.euskadi.eus/es/museos/centro-del-queso-eginoko-artzaia/webtur00-content/es/,True,False,True,True,False,4
,https://turismoa.euskadi.eus/es/museos/museo-del-traje-errenteria/webtur00-content/es/,Jantziaren Zentroa - Centro del Traje,"En el corazón del Casco Histórico de Errenteria, la casa barroca del sigl...",cultura,Auditorios; Museos; Galerías de arte y salas de exposiciones,Errenteria,gipuzkoa,"Kapitain Etxea, Calle Kapitanenea 6",43.313114,-1.8989063999999871,943 494 521,jantziarenzentroa@errenteria.eus,https://www.jantziarenzentroa.eus/es/,True,True,True,True,False,4
,https://turismoa.euskadi.eus/es/museos/kobenkoba/webtur00-content/es/,Kobenkoba,"Instalado en la cueva de Los Judíos del barrio de Sangrices, Kobenkoba es el primer centro...",cultura,Auditorios; Museos; Galerías de arte y salas de exposiciones,Karrantza Harana/Valle de Carranza,bizkaia,Cueva de Los Judíos. Barrio Sangrices,43.22335943654445,-3.437942619140577,675 716 161,,https://www.lanestosa.net/es/kobenkoba.html,True,False,False,True,False,2
,https://turismoa.euskadi.eus/es/museos/museo-aguinaga-de-mercedes-benz/webtur00-content/es/,Museo Aguinaga de Mercedes-Benz,El Museo Aguinaga de Barakaldo es el escenario perfecto para perderse en la historia de Merc...,cultura,Auditorios; Museos; Galerías de arte y salas de exposiciones,Barakaldo,bizkaia,"Jose Vara Kalea, 7",43.28643917676793,-3.001068769311581,944 97 02 39,museo@aguinaga.es,https://www.mercedesbenzaguinaga.com/museo/,True,False,False,True,False,4
,https://turismoa.euskadi.eus/es/museos/museo-memorial-del-cinturon-de-hierro/webtur00-content/es/,Museo Memorial del Cinturón de Hierro,El cinturón de Hierro era una gran línea defensiva ideada durante la Guerra Civil p...,cultura,Auditorios; Museos; Galerías de arte y salas de exposiciones,Berango,bizkaia,"Simon Otxandategi, 64",43.3642846,-2.995937599999934,946 682 143,burdinhesia@berango.org,https://www.cinturondehierro.eus/,True,False,False,True,False,4
,https://turismoa.euskadi.eus/es/museos/centro-de-interpretacion-de-navaridas/webtur00-content/es/,Centro de Interpretación de Navaridas,El Centro de Interpretación de Navaridas se ubica en la antigua Casa Palacio de los Sodupe...,cultura,Auditorios; Museos; Galerías de arte y salas de exposiciones,Navaridas,araba,"Diputación Foral de Alava Hiribidea, 3",42.5453629,-2.625259300000039,,,http://www.altodecastejongaina.com,True,False,False,True,False,4
,https://turismoa.euskadi.eus/es/museos/el-romanico-en-alava-santuario-de-estibaliz-y-centro-de-interpretacion-del-romanico/webtur00-content/es/,El románico en Álava: Santuario de Estíbaliz y Centro de Interpretación del Románico,El Santuario de Nuestra Señor de Estíbaliz es una de las construcciones más ...,cultura,Auditorios; Museos; Galerías de arte y salas de exposiciones,Vitoria-Gasteiz,araba,C/ Cerro de Estíbaliz s/n Santuario de Estíbaliz<br/>,42.8482329,-2.5702479000000267,,,,True,False,True,True,False,2
,https://turismoa.euskadi.eus/es/museos/museo-reproducciones-artisticas/webtur00-content/es/,Museo de reproducciones artísticas,"El Museo de Reproducciones Artísticas de Bilbao, uno de los más antiguos de la ciud...",cultura,Auditorios; Museos; Galerías de arte y salas de exposiciones,Bilbao,bizkaia,"San Francisco, 14",43.2558889,-2.9282623,946 790 255,info@bilbokoberreginenmuseoa.eus,http://www.bilbokoberreginenmuseoa.eus/,True,False,True,True,False,4
,https://turismoa.euskadi.eus/es/museos/bengola-centro-de-interpretacion-de-energias-renovables/webtur00-content/es/,Bengola - Centro de Interpretación de Energías Renovables,Centro de Interpretación de Energías Renovables Bengola se encuentra en el municipi...,cultura,Auditorios; Museos; Galerías de arte y salas de exposiciones,Munitibar-Arbatzegi Gerrikaitz,bizkaia,"Gerrikaitz, 14",43.262514542740206,-2.591458150787396,,leaibarra@bizkaia.org,https://www.leaartibaiturismo.com/es/hacer/detalle/bengola,True,False,False,False,False,2
,https://turismoa.euskadi.eus/es/museos/fagus-alkiza/webtur00-content/es/,Fagus Alkiza,"Fagus Alkiza es el nombre del centro de interpretación de Hernio-Gazume, un macizo calc&aa...",cultura,Auditorios; Museos; Galerías de arte y salas de exposiciones,Alkiza,gipuzkoa,San Martin Plaza,43.1729292,-2.1090257,688 604 466,kultura@alkiza.eus,https://www.fagus-alkiza.eus/,True,False,False,True,False,2
,https://turismoa.euskadi.eus/es/museos/ur-mara/webtur00-content/es/,Ur mara,"El museo Ur mara es un museo en torno a la obra del artista Koldobika Jauregi y sus inquietudes, ...",cultura,Auditorios; Museos; Galerías de arte y salas de exposiciones,Alkiza,gipuzkoa,"Azaldegi, 18",43.1828237,-2.088587500000017,609 465 942,info@urmara.com,https://www.urmara.com/,True,True,True,True,False,2
,https://turismoa.euskadi.eus/es/museos/centro-de-interpretacion-del-parque-natural-de-izki/webtur00-content/es/,Centro de Interpretación del Parque Natural de Izki,"El centro realiza labores de acogida a visitantes, ofreciendo todo tipo de información, qu...",cultura,Auditorios; Museos; Galerías de arte y salas de exposiciones,Arraia-Maeztu,araba,Calle Afuera s/n,42.699295404991375,-2.4335874441802616,945 410 502,parqueizki@parques.araba.eus,https://izkiparkea.eus/es/inicio,True,False,True,True,False,4
,https://turismoa.euskadi.eus/es/museos/sintonia-arrecifal/webtur00-content/es/,Sintonía arrecifal,Sintonía arrecifal es el nombre de la Galería-Observatorio de Arte y Naturaleza cre...,cultura,Auditorios; Museos; Galerías de arte y salas de exposiciones,Ereño,bizkaia,Canteras de Ereño,43.356394284833954,-2.6202223677063263,946 254 621,,https://sites.google.com/view/sintonia-arrecifal,True,True,False,False,False,4
,https://turismoa.euskadi.eus/es/museos/centro-de-interpretacion-del-parque-natural-de-valderejo/webtur00-content/es/,Centro de Interpretación del Parque Natural de Valderejo,El Centro de Interpretación del Parque Natural de Valderejo se encuentra situado a las afu...,cultura,Auditorios; Museos; Galerías de arte y salas de exposiciones,Valdegovía/Gaubea,araba,,42.87493451676326,-3.231496242605552,945 353 146,parquevalderejo@parques.araba.eus,,True,False,False,True,False,4
,https://turismoa.euskadi.eus/es/museos/centro-de-interpretacion-de-arditurri-parque-natural-aiako-harria/webtur00-content/es/,Arditurri - Centro de Interpretación del Parque Natural Aiako Harria,"Arditurri, la Casa del Parque Natural Aiako Harria se encuentra en uno de los accesos a este encl...",cultura,Auditorios; Museos; Galerías de arte y salas de exposiciones,Oiartzun,gipuzkoa,"Arditurri Bidea, 3",43.28410391654881,-1.8044221957397892,943 494 521,turismoa@oarsoaldea.eus,https://www.arditurribideberdea.eus/,True,True,False,False,False,4
,https://turismoa.euskadi.eus/es/museos/toki-alai-centro-de-acogida-e-interpretacion-del-parque-natural-de-urkiola/webtur00-content/es/,"Toki-Alai, Centro de Acogida e Interpretación del Parque Natural de Urkiola","Toki-Alai, el Centro de Acogida e Interpretación del Parque Natural de Urkiola, se encuent...",cultura,Auditorios; Museos; Galerías de arte y salas de exposiciones,Abadiño,bizkaia,Urkiolako mendatea 8,43.1005317,-2.650921400000016,946 814 155,urkiola.parke.naturala@bizkaia.eus,http://web.bizkaia.eus/es/-/toki-alai-parketxe-de-urkiola,True,False,True,True,False,4
,https://turismoa.euskadi.eus/es/museos/parketxe-armanon/webtur00-content/es/,Parketxe Armañón,El Centro de interpretación del Parque Natural de Armañón y Zona de Especial...,cultura,Auditorios; Museos; Galerías de arte y salas de exposiciones,Karrantza Harana/Valle de Carranza,bizkaia,,43.25908092167415,-3.3833680381897047,946 560 079,armanon.parke.naturala@bizkaia.eus,http://web.bizkaia.eus/es/-/centro-de-interpretacion-del-parque-natural-de-armanon,True,False,True,False,False,4
,https://turismoa.euskadi.eus/es/museos/parketxe-lizarrusti/webtur00-content/es/,Parketxe Lizarrusti,"Situado en lo alto del puerto del que toma su nombre, Lizarrusti es el Centro de Interpretaci&oac...",cultura,Auditorios; Museos; Galerías de arte y salas de exposiciones,Ataun,gipuzkoa,"Aia Auzoa, 2",42.96062504049581,-2.099490884753428,943 180 335,lizarrusti@gipuzkoanatura.eus,https://www.gipuzkoanatura.eus/eu/parketxeak/lizarrusti,True,False,False,False,False,4
,https://turismoa.euskadi.eus/es/museos/parketxe-de-areatza/webtur00-content/es/,Parketxe de Areatza,"El Parketxe de Areatza, ubicado en la plaza de este municipio del Valle de Arratia, en Bizkaia, s...",cultura,Auditorios; Museos; Galerías de arte y salas de exposiciones,Areatza,bizkaia,"Gudarien Plaza, 1",43.120908,-2.7681259999999384,946 739 279,gorbeia.parke.naturala@bizkaia.eus,https://web.bizkaia.eus/es/-/centro-de-interpretacion-del-parque-natural-de-gorbeia,True,False,True,True,False,4
,https://turismoa.euskadi.eus/es/museos/iturraran-centro-de-interpretacion-del-parque-natural-de-pagoeta/webtur00-content/es/,"Iturraran, Centro de Interpretación del Parque Natural de Pagoeta","El Parque Natural de Pagoeta cuenta con un centro de interpretación en Iturraran, un hermo...",cultura,Auditorios; Museos; Galerías de arte y salas de exposiciones,Aia,gipuzkoa,"Laurgain Auzoa Barreiatua, 12",43.2497956,-2.1557626999999684,943 835 389,iturraran@gipuzkoanatura.eus,https://www.gipuzkoanatura.eus/es/parketxes/iturraran,True,True,True,True,False,4
,https://turismoa.euskadi.eus/es/museos/antzasti/webtur00-content/es/,Antzasti,"Allí, las hermanas Cristina y Elena Amezaga han creado un museo de gran valor antropol&oac...",cultura,Auditorios; Museos; Galerías de arte y salas de exposiciones,Dima,bizkaia,"Artaun Auzoa, 25",43.15444215709016,-2.7314916715499797,657 704 207,antzasti@antzasti.eus,https://www.antzasti.eus,True,True,True,True,False,4
,https://turismoa.euskadi.eus/es/museos/konsoni-lantegia/webtur00-content/es/,Konsoni Lantegia - Depósito de Patrimonio Industrial Mueble de Euskadi,Konsoni Lantegia es un almacén donde el Departamento de Cultura y Pol&iacut...,cultura,Auditorios; Museos; Galerías de arte y salas de exposiciones,Bilbao,bizkaia,"Zorrozaurre, 20",43.27520958152846,-2.967021452114877,681 213 539,konsonilantegia@gmail.com,,True,False,True,True,False,2
,https://turismoa.euskadi.eus/es/museos/la-escuela-1950/webtur00-content/es/,La escuela de 1950,"Los pizarrines, pupitres y enciclopedias… cada detalle ocupa su lugar en riguroso orden, h...",cultura,Auditorios; Museos; Galerías de arte y salas de exposiciones,Legazpi,gipuzkoa,"Santikutz, 5B",43.0535,-2.33361,943 73 04 28,,https://lenbur.com/es/museos/la-escuela-y-capilla-anos-50/,True,True,True,True,False,2
,https://turismoa.euskadi.eus/es/museos/la-vivienda-obrera/webtur00-content/es/,La vivienda obrera,La Vivienda obrera de Legazpi traslada quien la visita a una época en la que miles de fami...,cultura,Auditorios; Museos; Galerías de arte y salas de exposiciones,Legazpi,gipuzkoa,"Santikutz, 5B,",43.0539627,-2.3338751,943 73 04 28,,http://lenbur.com/es/museos/la-escuela-de-1950/,True,True,True,False,False,2
,https://turismoa.euskadi.eus/es/museos/lagum/webtur00-content/es/,Lagum,Lagum ofrece un viaje por Rioja Alavesa desde la prehistoria hasta la actualidad. Su objetivo es ...,cultura,Auditorios; Museos; Galerías de arte y salas de exposiciones,Laguardia,araba,"Calle Mayor, 66",42.55287599742912,-2.584914849737548,945 600 845,info@lagum.org,https://lagum.org/,True,False,False,False,False,2
,https://turismoa.euskadi.eus/es/museos/aresketamendi-parque-de-interpretacion-de-las-energias-renovables-amurrio/webtur00-content/es/,"Aresketamendi, Parque de Interpretación de las Energías Renovables",CERRADO TEMPORALMENTEAresketamendi es el Parque de Interpretación de las Energías R...,cultura,Auditorios; Museos; Galerías de arte y salas de exposiciones,Amurrio,araba,Carretera A-624 errepidea,43.0532318,-3.0117455,619 777 638,aresketamendi@amurrio.org,,True,True,False,True,False,2
,https://turismoa.euskadi.eus/es/museos/parketxe-de-sarria-parque-natural-gorbeia/webtur00-content/es/,Parketxe de Sarria,La Casa del Parque o Parketxe de Sarria es el Centro de Interpretación del Parque Natural ...,cultura,Auditorios; Museos; Galerías de arte y salas de exposiciones,Zuia,araba,Baiako zentrala z/g,42.9859895,-2.8320237,945 430 709,parquegorbeia@parques.araba.eus,https://gorbeiaparkea.eus/es/home,True,False,False,True,False,2
,https://turismoa.euskadi.eus/es/museos/parketxe-arantzazu/webtur00-content/es/,Parketxe Arantzazu,"Además de ser el centro de interpretación y acogida a visitantes, en los más...",cultura,Auditorios; Museos; Galerías de arte y salas de exposiciones,Oñati,gipuzkoa,"Arantzazu auzoa, 2",42.97975539999999,-2.400959,943 782 894,arantzazu@gipuzkoanatura.eus,https://www.gipuzkoanatura.eus/eu/parketxeak/arantzazu,True,True,False,True,False,4
,https://turismoa.euskadi.eus/es/museos/kantauri-ondare-museoa/webtur00-content/es/,Kantauri Ondare Museoa,Kantauri Ondare Museoa es un pequeño museo de Zumaia. Muestra&nbs...,cultura,Auditorios; Museos; Galerías de arte y salas de exposiciones,Zumaia,gipuzkoa,"Kantauri Plaza, 5 bajo",43.2952472,-2.2567222,688 632 657,,,True,True,False,True,False,2
,https://turismoa.euskadi.eus/es/museos/ekoetxea-meatzaldea/webtur00-content/es/,Ekoetxea Meatzaldea,El equipamiento tiene dos sedes situadas en pleno corazón de la Zona Minera de Bizkaia. Ga...,cultura,Auditorios; Museos; Galerías de arte y salas de exposiciones,Abanto y Ciérvana-Abanto Zierbena,bizkaia,"Bº Campo Diego, s/n.",43.311182,-3.0711956,946 051 275,info.meatzaldea@ekoetxea.eus,https://ekoetxea.eus/es/meatzaldea,True,True,False,True,False,2
,https://turismoa.euskadi.eus/es/museos/mufomi-museo-de-fosiles-y-minerales-de-elgoibar/webtur00-content/es/,Mufomi - Museo de Fósiles y Minerales de Elgoibar,"El Museo de Fósiles y Minerales Mufomi abrió sus puertas en 1994, fruto del arduo t...",cultura,Auditorios; Museos; Galerías de arte y salas de exposiciones,Elgoibar,gipuzkoa,Artetxe kalea s/n,43.219036,-2.4069808,608 416 683,info@mufomi.org,https://mufomi.org/,True,False,False,True,False,2
,https://turismoa.euskadi.eus/es/museos/arkeologi-museoa/webtur00-content/es/,Arkeologi Museoa,"El museo de arqueología Arkeologi Museoa, inaugurado en 2009, es el centro de referencia e...",cultura,Auditorios; Museos; Galerías de arte y salas de exposiciones,Bilbao,bizkaia,"Calzada de Mallona, 2",43.2587037,-2.9215942,944 040 990,arkeologimuseoa@bizkaia.eus,,True,False,False,True,False,2
,https://turismoa.euskadi.eus/es/museos/museo-orduna-hiria-museoa/webtur00-content/es/,Museo Orduña Hiria Museoa,El museo etnográfico y cultural de Orduña está enclavado en uno de los ...,cultura,Auditorios; Museos; Galerías de arte y salas de exposiciones,Urduña/Orduña,bizkaia,"Andra Mari plaza, 1",42.9948102,-3.007623,635 751 436,contacto@ordunahiria.org,https://www.ordunahiria.org/,True,True,False,True,False,2
,https://turismoa.euskadi.eus/es/museos/bbk-klima/webtur00-content/es/,BBK Klima,BBK Klima,cultura,Auditorios; Museos; Galerías de arte y salas de exposiciones,Busturia,bizkaia,"Axpe Auzoa, 121",43.3886302,-2.6926733,,,https://www.bbk.eus/bbk-klima/,True,True,False,False,False,2
,https://turismoa.euskadi.eus/es/museos/ekoetxea-anana-sobron/webtur00-content/es/,Ekoetxea Añana-Sobron,Ekoetxea Añana Sobron nos ayuda a descubrir la importancia del agua en nuestras videas. Si...,cultura,Auditorios; Museos; Galerías de arte y salas de exposiciones,Lantarón,araba,"La Presa, 2",42.76645,-3.0908681,945 359 235,info.sobron@ekoetxea.eus,https://ekoetxea.eus/es/sobron/,True,True,True,False,False,4
,https://turismoa.euskadi.eus/es/museos/mendietxe-museoa/webtur00-content/es/,Mendietxe Museoa,"El Mendietxe Museoa, situado en Azpeitia, es un espacio único dedicado al mundo del alpini...",cultura,Auditorios; Museos; Galerías de arte y salas de exposiciones,Azpeitia,gipuzkoa,"Loiolako Inazio hiribidea, 20",43.1802669,-2.2733295,601 925 006,mendiarenetxea@gmail.com,https://mendietxemuseoa.eus/,True,True,False,True,False,4
